City_ID,City,Lat,Lng,Max Temp,Humidity,Cloudiness,Wind Speed,Country,Date
0,calama,-22.4667,-68.9333,21.27,5,0,9.26,CL,1728687613
1,aswan,24.0934,32.907,27.61,21,0,2.06,EG,1728687635
2,west island,-12.1568,96.8225,25.99,89,40,6.17,CC,1728687726
3,quepos,9.4236,-84.1652,26.15,89,100,0.86,CR,1728687728
4,invercargill,-46.4,168.35,13.9,61,55,4.02,NZ,1728687729
5,ribeira grande,38.5167,-28.7,18.21,74,81,1.79,PT,1728687730
6,las higueras,-33.0923,-64.289,21.34,35,87,2.48,AR,1728687731
7,avarua,-21.2078,-159.775,26.03,69,75,10.29,CK,1728687733
8,waitangi,-43.9535,-176.5597,11.57,91,100,5.36,NZ,1728687734
9,champerico,14.3,-91.9167,27.54,78,79,1.6,GT,1728687735
10,port-aux-francais,-49.35,70.2167,0.42,72,51,19.74,TF,1728687737
11,midvagur,62.0511,-7.1939,1.46,86,75,5.14,FO,1728687738
12,nizhneangarsk,55.7833,109.55,-3.96,79,66,1.9,RU,1728687740
13,anadyr,64.75,177.4833,-6.72,85,20,3.0,RU,1728687741
14,usogorsk,63.4106,48.6872,0.22,53,100,5.68,RU,1728687742
15,blackmans bay,-43.0167,147.3167,13.62,55,13,1.79,AU,1728687743
16,macapa,0.0389,-51.0664,29.99,74,20,6.69,BR,1728687745
17,hermanus,-34.4187,19.2345,12.67,86,17,2.56,ZA,1728687746
18,san patricio,28.017,-97.5169,28.68,42,0,5.03,US,1728687747
19,puerto natales,-51.7236,-72.4875,10.25,57,75,10.8,CL,1728687748
20,hamilton,39.1834,-84.5333,20.91,53,0,1.54,US,1728687750
21,luderitz,-26.6481,15.1594,15.34,74,0,4.55,NA,1728687751
22,luanda,-8.8368,13.2343,26.0,83,100,4.63,AO,1728687469
23,egilsstadir,65.2653,-14.3948,-1.05,69,75,6.17,IS,1728687753
24,bilibino,68.0546,166.4372,-12.72,88,84,0.98,RU,1728687755
25,whitehorse,60.7161,-135.0538,6.43,47,75,6.71,CA,1728687756
26,hecelchakan,20.1667,-90.1333,28.57,54,26,1.19,MX,1728687757
27,muroto-misakicho,33.2833,134.15,21.42,61,0,4.32,JP,1728687759
28,grytviken,-54.2811,-36.5092,-0.06,83,49,3.34,GS,1728687760
29,la sierpe,21.7717,-79.2684,26.85,83,95,1.58,CU,1728687761
30,edinburgh of the seven seas,-37.0676,-12.3116,10.3,58,93,11.7,SH,1728687762
31,vanimo,-2.6741,141.3028,28.59,73,28,2.56,PG,1728687764
32,bethel,41.3712,-73.414,15.5,64,0,0.45,US,1728687765
33,singkil,-7.9855,111.4161,26.4,75,100,2.09,ID,1728687766
34,ushuaia,-54.8,-68.3,5.81,81,40,8.23,AR,1728687767
35,chibougamau,49.9168,-74.3659,6.79,100,100,4.12,CA,1728687769
36,vorgashor,67.5833,63.95,-7.38,76,100,4.31,RU,1728687770
37,hawaiian paradise park,19.5933,-154.9731,28.26,73,86,1.79,US,1728687771
38,vilyuchinsk,52.9306,158.4028,8.15,89,100,12.14,RU,1728687773
39,port lincoln,-34.7333,135.8667,14.53,71,100,7.89,AU,1728687774
40,ancud,-41.8697,-73.8203,8.73,84,85,5.23,CL,1728687775
41,manokwari,-0.8667,134.0833,27.96,70,9,1.54,ID,1728687777
42,adamstown,-25.066,-130.1015,21.54,85,87,5.24,PN,1728687778
43,wenchang,30.904,118.4887,16.53,84,92,3.02,CN,1728687779
44,mount pearl,47.5166,-52.7813,9.52,90,75,8.23,CA,1728687780
45,shimoda,34.6667,138.95,21.04,78,17,5.42,JP,1728687782
46,motygino,58.1831,94.7592,-7.34,79,8,1.79,RU,1728687783
47,bakchar,57.0186,82.0711,-5.29,78,59,5.02,RU,1728687784
48,nemuro,43.3236,145.575,10.64,68,0,4.07,JP,1728687785
49,kailua-kona,19.6406,-155.9956,27.93,88,100,0.89,US,1728687787
50,thompson,55.7435,-97.8558,10.09,43,40,1.54,CA,1728687788
51,rotorua,-38.1387,176.2452,16.07,69,42,3.34,NZ,1728687789
52,yellowknife,62.456,-114.3525,4.12,100,100,2.57,CA,1728687634
53,agboville,5.928,-4.2132,22.83,99,99,1.22,CI,1728687792
54,codrington,-38.2667,141.9667,12.52,64,11,3.6,AU,1728687793
55,pryluky,50.5932,32.3876,15.77,84,90,3.18,UA,1728687794
56,albany,42.6001,-73.9662,13.29,69,5,2.49,US,1728687796
57,ballina,-28.8667,153.5667,20.68,66,6,2.25,AU,1728687797
58,gadzhiyevo,69.2551,33.3362,8.37,78,100,9.09,RU,1728687798
59,saint-pierre,-21.3393,55.4781,20.82,60,20,3.6,RE,1728687799
60,kakching,24.4833,93.9833,17.29,98,8,0.51,IN,1728687801
61,mersa matruh,31.3525,27.2453,23.11,83,0,0.0,EG,1728687802
62,bredasdorp,-34.5322,20.0403,12.71,91,45,0.67,ZA,1728687803
63,lompoc,34.6391,-120.4579,22.3,71,0,5.14,US,1728687804
64,georgetown,5.4112,100.3354,25.96,88,20,1.54,MY,1728687806
65,port elizabeth,-33.918,25.5701,16.16,97,75,3.09,ZA,1728687615
66,polyarnyy,69.1989,33.4478,8.39,81,100,8.26,RU,1728687808
67,fort bragg,35.139,-79.006,17.91,61,0,0.0,US,1728687809
68,nadi,-17.8,177.4167,31.0,51,40,3.6,FJ,1728687811
69,lihue,21.9789,-159.3672,28.19,69,75,4.63,US,1728687812
70,palmas,-10.2128,-48.3603,27.93,69,40,1.54,BR,1728687813
71,peace river,56.2501,-117.286,13.17,40,0,4.63,CA,1728687815
72,port alfred,-33.5906,26.891,16.87,86,100,3.35,ZA,1728687816
73,talnakh,69.4865,88.3972,-8.8,97,100,0.66,RU,1728687817
74,labrador city,52.9463,-66.9114,2.95,80,75,6.17,CA,1728687818
75,la passe,45.5549,-0.8967,14.02,76,100,5.85,FR,1728687820
76,susuman,62.7833,148.1667,-5.6,94,97,0.51,RU,1728687821
77,papatowai,-46.5619,169.4708,14.23,45,41,2.18,NZ,1728687822
78,murzuq,25.9155,13.9184,30.78,17,1,3.79,LY,1728687823
79,puerto ayora,-0.7393,-90.3518,20.86,89,77,3.58,EC,1728687825
80,atafu village,-8.5421,-172.5159,28.36,75,15,7.2,TK,1728687826
81,kushiro,42.975,144.3747,8.53,87,0,2.57,JP,1728687827
82,wailua homesteads,22.0669,-159.378,28.44,78,0,5.14,US,1728687829
83,axim,4.8699,-2.2405,25.12,87,68,2.97,GH,1728687830
84,tazovsky,67.4667,78.7,-2.83,90,100,3.68,RU,1728687831
85,badger,64.8,-147.5333,9.14,53,0,5.14,US,1728687832
86,freetown,8.484,-13.2299,24.25,91,100,2.53,SL,1728687834
87,lichinga,-13.3128,35.2406,19.05,72,100,2.68,MZ,1728687835
88,al khafji,28.4391,48.4913,28.11,69,0,3.03,SA,1728687836
89,wulingyuan,29.3494,110.5441,15.21,72,96,1.03,CN,1728687837
90,new norfolk,-42.7826,147.0587,14.28,41,37,1.19,AU,1728687839
91,neiafu,-18.65,-173.9833,28.38,78,75,5.66,TO,1728687840
92,berezovyy,51.6667,135.7,4.51,69,61,2.48,RU,1728687841
93,khagaria,25.5,86.4833,23.78,75,84,2.63,IN,1728687842
94,alice springs,-23.7,133.8833,24.75,19,100,5.66,AU,1728687844
95,mount isa,-20.7333,139.5,30.87,35,3,5.66,AU,1728687845
96,beau vallon,-20.4189,57.6953,22.13,73,75,7.2,MU,1728687846
97,golfito,8.639,-83.166,22.5,96,100,0.48,CR,1728687848
98,qaqortoq,60.7167,-46.0333,3.24,57,100,1.7,GL,1728687849
99,sao felix do xingu,-6.6447,-51.995,29.32,38,68,1.0,BR,1728687850
100,stanley,54.868,-1.6985,4.6,85,88,3.93,GB,1728687851
101,hua hin,12.5707,99.9588,25.01,100,20,0.0,TH,1728687853
102,alofi,-19.0595,-169.9187,27.94,69,75,6.17,NU,1728687854
103,bogale,16.2833,95.4,25.0,93,97,1.19,MM,1728687855
104,poxoreo,-15.8372,-54.3892,27.59,57,72,2.23,BR,1728687857
105,diamantino,-14.4086,-56.4461,29.79,47,94,2.1,BR,1728687858
106,fale old settlement,-9.3852,-171.2468,27.96,76,25,7.25,TK,1728687859
107,isafjordur,66.0755,-23.124,-2.96,74,64,4.04,IS,1728687861
108,iskateley,67.6803,53.1512,-0.31,64,100,11.38,RU,1728687862
109,merano,46.6682,11.1595,12.04,82,83,1.66,IT,1728687863
110,plastun,44.7561,136.2939,11.42,79,1,1.51,RU,1728687864
111,recreo,-29.2818,-65.061,24.6,45,19,4.99,AR,1728687866
112,tekkali,18.6167,84.2333,24.87,88,59,1.57,IN,1728687867
113,la paz,-16.5,-68.15,14.99,46,20,6.17,BO,1728687608
114,dolzhanskaya,46.6311,37.8039,16.72,62,0,5.55,RU,1728687870
115,bel ombre,-4.6167,55.4167,26.91,78,20,7.2,SC,1728687871
116,mantua,45.1667,10.7833,13.32,89,0,0.45,IT,1728687872
117,kharan,28.5833,65.4167,24.52,12,0,3.48,PK,1728687873
118,saint-joseph,-21.3667,55.6167,20.21,76,43,6.17,RE,1728687875
119,jamestown,42.097,-79.2353,14.8,58,0,4.12,US,1728687876
120,tafuna,-14.3358,-170.72,31.97,66,40,5.66,AS,1728687877
121,kalmunai,7.4167,81.8167,25.55,86,96,2.95,LK,1728687879
122,demyansk,57.643,32.466,12.45,97,100,4.11,RU,1728687880
123,punta del este,-34.9667,-54.95,16.06,87,0,1.54,UY,1728687881
124,namibe,-15.1961,12.1522,20.22,82,10,1.29,AO,1728687882
125,akureyri,65.6835,-18.0878,-7.04,73,0,2.57,IS,1728687884
126,udachny,66.4167,112.4,-10.83,95,100,3.7,RU,1728687885
127,iqaluit,63.7506,-68.5145,1.85,93,100,3.6,CA,1728687886
128,petropavlovsk-kamchatsky,53.0452,158.6483,7.33,46,75,11.0,RU,1728687888
129,enewetak,11.3474,162.3373,28.99,74,28,4.56,MH,1728687889
130,machico,32.7,-16.7667,24.45,82,75,1.34,PT,1728687890
131,guerrero negro,27.9769,-114.0611,25.63,52,1,5.99,MX,1728687891
132,lata,40.1629,-8.3327,15.8,96,100,1.93,PT,1728687893
133,kharkhorin,47.1975,102.8238,6.62,40,2,3.57,MN,1728687894
134,afaahiti,-17.75,-149.2833,23.44,83,76,5.05,PF,1728687898
135,robore,-18.3333,-59.75,28.05,78,80,0.0,BO,1728687899
136,puerto baquerizo moreno,-0.9,-89.6,21.55,94,75,5.14,EC,1728687900
137,yuzhno-kurilsk,44.0306,145.8556,11.9,61,28,7.32,RU,1728687902
138,jasidih,24.5167,86.65,23.53,66,84,2.02,IN,1728687903
139,luganville,-15.5333,167.1667,26.95,70,81,5.23,VU,1728687904
140,aasiaat,68.7098,-52.8699,-4.04,71,3,6.11,GL,1728687905
141,kalkaman,51.9525,76.0211,0.91,49,100,7.59,KZ,1728687907
142,alo,6.5486,4.2686,25.38,90,48,3.78,NG,1728687908
143,at-bashi,41.1702,75.8106,7.27,57,31,0.63,KG,1728687909
144,constantia,44.1833,28.65,19.38,71,100,4.89,RO,1728687911
145,broken hill,-31.95,141.4333,15.48,42,73,9.07,AU,1728687912
146,remire-montjoly,4.9167,-52.2667,27.02,89,75,1.03,GF,1728687913
147,belomorsk,64.5232,34.7668,10.42,92,100,5.19,RU,1728687914
148,dudinka,69.4058,86.1778,-7.33,97,100,1.22,RU,1728687916
149,shangzhi,45.2167,127.9667,6.61,65,2,1.99,CN,1728687917
150,sambava,-14.2667,50.1667,21.34,86,11,6.38,MG,1728687919
151,arawa,-6.2132,155.5367,28.77,77,99,1.33,PG,1728687920
152,nouadhibou,20.931,-17.0347,25.99,69,64,8.23,MR,1728687921
153,uturoa,-16.7333,-151.4333,25.46,75,6,6.71,PF,1728687922
154,alpine,32.835,-116.7664,32.04,26,0,4.12,US,1728687924
155,zeya,53.75,127.2667,0.1,82,77,2.62,RU,1728687925
156,tiksi,71.6872,128.8694,-11.08,96,67,3.07,RU,1728687926
157,crane,31.3974,-102.3501,32.48,13,0,7.77,US,1728687928
158,north fond du lac,43.8114,-88.4834,24.05,46,0,5.14,US,1728687929
159,vernon,50.2581,-119.2691,17.09,42,91,0.58,CA,1728687765
160,ilulissat,69.2167,-51.1,-2.99,54,0,1.54,GL,1728687931
161,severnoye,56.3491,78.3619,-4.74,70,85,7.44,RU,1728687933
162,arraial do cabo,-22.9661,-42.0278,22.98,100,75,8.75,BR,1728687934
163,naze,28.3667,129.4833,23.51,76,85,3.81,JP,1728687935
164,brisas de zicatela,15.8369,-97.0419,27.14,74,71,1.28,MX,1728687936
165,olonkinbyen,70.9221,-8.7187,-1.96,96,100,15.76,SJ,1728687938
166,weno,7.4515,151.8468,30.97,74,100,1.54,FM,1728687939
167,dailekh,28.8333,81.6667,17.37,67,24,2.56,NP,1728687940
168,santa elena de uairen,4.6167,-61.1333,21.73,79,100,1.05,VE,1728687941
169,dila,6.4167,38.3167,16.31,90,96,1.78,ET,1728687943
170,wabag,-5.4781,143.7021,19.71,67,17,1.06,PG,1728687944
171,ola,59.5833,151.2833,1.82,72,100,3.18,RU,1728687945
172,chonchi,-42.6128,-73.8092,9.51,90,74,2.8,CL,1728687947
173,pariaman,-0.619,100.12,24.03,89,100,1.62,ID,1728687948
174,bodo,67.28,14.405,4.87,80,20,5.14,NO,1728687949
175,ilanskiy,56.2358,96.065,-4.83,58,100,3.96,RU,1728687950
176,saint-philippe,-21.3585,55.7679,20.23,79,73,5.96,RE,1728687952
177,djambala,-2.5447,14.7533,21.29,89,79,2.0,CG,1728687953
178,antsiranana,-12.2787,49.2917,23.58,69,5,8.09,MG,1728687954
179,gouyave,12.1646,-61.7296,29.43,74,20,5.66,GD,1728687955
180,kill devil hills,36.0307,-75.676,17.21,72,0,0.0,US,1728687957
181,touros,-5.1989,-35.4608,24.75,75,82,6.69,BR,1728687958
182,hithadhoo,-0.6,73.0833,28.28,73,77,7.03,MV,1728687959
183,ar ruways,24.1103,52.7306,28.51,56,0,4.9,AE,1728687961
184,ak-suu,42.4995,78.527,9.57,44,66,1.07,KG,1728687962
185,newman,37.3138,-121.0208,31.14,30,4,0.89,US,1728687963
186,east london,-33.0153,27.9116,16.91,80,100,1.72,ZA,1728687964
187,port blair,11.6667,92.75,26.02,94,40,1.03,IN,1728687966
188,ambanja,-13.6833,48.45,22.12,86,27,1.52,MG,1728687967
189,nar'yan-mar,67.6713,53.087,-0.3,64,100,11.35,RU,1728687968
190,aksuat,48.7167,83.7,11.11,85,100,3.25,KZ,1728687969
191,chokwe,-24.5333,32.9833,22.16,63,4,3.07,MZ,1728687971
192,nadym,65.5333,72.5167,-3.08,67,100,3.55,RU,1728687972
193,kharp,66.8014,65.8081,-7.68,81,100,1.65,RU,1728687973
194,padampur,29.6833,73.6167,25.55,25,0,2.06,IN,1728687975
195,siwa oasis,29.2041,25.5195,28.38,30,0,0.47,EG,1728687976
196,i-n-salah,27.1935,2.4607,32.13,14,0,3.42,DZ,1728687977
197,kruisfontein,-34.0033,24.7314,12.93,81,99,2.09,ZA,1728687980
198,dingwall,57.5953,-4.4272,8.99,95,100,3.29,GB,1728688029
199,ust'-kut,56.7938,105.7672,-6.3,95,24,0.7,RU,1728688030
200,tari,-11.1105,14.3559,19.37,90,5,1.38,AO,1728688032
201,dhidhdhoo,6.8833,73.1,26.91,84,100,7.19,MV,1728688033
202,altai,46.3722,96.2583,4.6,40,32,3.19,MN,1728688034
203,yung shue wan,22.2333,114.1167,26.68,70,80,8.84,HK,1728688035
204,rezh,57.37,61.4043,-4.51,84,50,4.01,RU,1728688037
205,argo,37.6333,22.7333,24.01,49,88,2.14,GR,1728688038
206,massawa,15.6097,39.45,30.83,66,0,1.06,ER,1728688039
207,kuta,-8.7233,115.1723,26.97,94,20,3.09,ID,1728688040
208,pionerskiy,54.9508,20.2275,8.91,57,54,7.97,RU,1728688042
209,iskushuban,10.2837,50.23,25.22,71,40,2.39,SO,1728688043
210,niquero,20.0431,-77.5828,28.21,77,99,0.52,CU,1728688044
211,bamboo flat,11.7,92.7167,26.05,94,40,1.03,IN,1728688046
212,kodiak,57.79,-152.4072,8.73,93,100,13.38,US,1728688047
213,preobrazheniye,42.9019,133.9064,14.45,83,0,2.85,RU,1728688048
214,zaria,11.1113,7.7227,23.86,77,42,4.34,NG,1728688049
215,sanghar,26.0466,68.9481,27.09,55,0,3.56,PK,1728688051
216,castillos,-34.1667,-53.8333,13.33,94,0,1.66,UY,1728688052
217,coxim,-18.5067,-54.76,27.47,64,55,2.14,BR,1728688053
218,mirny,62.5353,113.9611,-9.66,98,82,1.11,RU,1728688055
219,island harbour,50.724,-1.2758,13.88,67,100,5.81,GB,1728688060
220,vadso,70.0744,29.7487,5.09,87,100,7.72,NO,1728688061
221,syas'stroy,60.1367,32.5691,11.04,97,100,3.69,RU,1728688063
222,zuunmod,47.7069,106.9528,-7.43,58,9,3.26,MN,1728688064
223,akhmet'a,42.0311,45.2075,12.79,94,80,1.8,GE,1728688065
224,medowie,-32.7333,151.8667,18.23,92,100,6.03,AU,1728688066
225,dunda,-8.1167,34.25,20.71,53,81,2.12,TZ,1728688068
226,ugbokpo,7.6565,7.8664,24.12,91,65,2.01,NG,1728688069
227,port douglas,-16.4833,145.4667,25.28,73,76,5.18,AU,1728687869
228,utrik,11.2278,169.8474,28.61,75,98,8.98,MH,1728688072
229,mejit,10.2753,170.8646,27.56,80,89,10.51,MH,1728688073
230,callao,-12.0667,-77.15,17.16,77,0,1.54,PE,1728688075
231,portland,45.5234,-122.6762,21.54,50,100,1.37,US,1728687269
232,richards bay,-28.783,32.0377,19.96,87,69,2.87,ZA,1728688078
233,puerto armuelles,8.2833,-82.8667,25.61,87,100,3.13,PA,1728688076
234,yerofey pavlovich,53.9667,121.9667,-3.74,68,60,1.7,RU,1728688080
235,ilebo,-4.3167,20.5833,21.05,90,89,1.19,CD,1728688082
236,dubai,25.2582,55.3047,29.96,66,0,2.06,AE,1728687469
237,nabire,-3.3667,135.4833,28.02,74,28,0.75,ID,1728688084
238,chamical,-30.36,-66.314,23.79,42,3,2.63,AR,1728688086
239,kayangel,8.0823,134.7173,29.03,71,7,3.45,PW,1728688087
240,sidney,-33.8679,151.2073,16.24,71,75,12.86,AU,1728688067
241,haiku-pauwela,20.9219,-156.3051,27.92,73,74,13.86,US,1728688089
242,alotau,-10.3069,150.4462,25.81,92,92,1.88,PG,1728688091
243,urzhum,57.1141,49.9996,-3.76,68,71,3.16,RU,1728688092
244,igrim,63.1906,64.4162,-3.43,70,26,1.81,RU,1728688093
245,cabedelo,-6.9811,-34.8339,26.37,76,97,5.97,BR,1728688095
246,tindouf,27.6711,-8.1474,25.91,42,1,7.6,DZ,1728688096
247,porto novo,6.4965,2.6036,25.65,86,39,3.25,BJ,1728688097
248,holualoa,19.6228,-155.9522,25.86,87,100,2.39,US,1728688098
249,kapuskasing,49.4169,-82.4331,6.8,87,100,5.51,CA,1728688100
250,vila franca do campo,37.7167,-25.4333,18.27,99,31,5.9,PT,1728688101
251,hammerfest,70.6634,23.6821,5.25,81,75,2.06,NO,1728688102
252,chandbali,20.7833,86.7667,25.02,88,51,2.56,IN,1728688103
253,dili,-8.5586,125.5736,28.79,53,62,1.72,TL,1728688105
254,calistoga,38.5788,-122.5797,26.57,38,82,3.37,US,1728688106
255,salinopolis,-0.6136,-47.3561,26.91,77,43,5.17,BR,1728688107
256,frederiksvaerk,55.9707,12.0225,8.94,89,68,3.13,DK,1728688108
257,buka,40.8108,69.1986,14.24,42,82,1.89,UZ,1728688110
258,dawei,14.0833,98.2,24.76,89,97,1.49,MM,1728688111
259,kapa'a,22.0752,-159.319,29.18,77,0,5.14,US,1728688113
260,praia,14.9215,-23.5087,27.3,83,100,3.6,CV,1728688115
261,berdychiv,49.8993,28.6024,12.17,91,100,6.09,UA,1728688116
262,sandnessjoen,66.0217,12.6316,7.13,54,97,14.26,NO,1728688118
263,astrakhan,46.3497,48.0408,6.93,76,0,3.0,RU,1728688119
264,college,64.8569,-147.8028,8.45,51,20,5.14,US,1728688120
265,oodweyne,9.4092,45.064,23.96,57,81,3.82,SO,1728688122
266,tolanaro,-25.0319,46.9987,21.38,80,61,8.29,MG,1728688123
267,kingaroy,-26.5333,151.8333,21.05,55,0,1.92,AU,1728688124
268,nizhneudinsk,54.9076,99.0276,-3.2,91,100,1.88,RU,1728688125
269,guiuan,11.0333,125.7247,28.84,73,100,2.84,PH,1728688127
270,selfoss,63.9331,-20.9971,-1.76,62,8,2.58,IS,1728688128
271,forster,-32.1667,152.5167,18.54,93,78,6.13,AU,1728688129
272,port mathurin,-19.6833,63.4167,21.92,68,100,10.67,MU,1728688130
273,sao tome,0.3365,6.7273,25.86,82,36,2.71,ST,1728688132
274,margate,51.3813,1.3862,10.25,67,72,4.39,GB,1728688133
275,marennes,45.8228,-1.1055,13.63,78,95,5.95,FR,1728688134
276,abra pampa,-22.7205,-65.697,16.87,6,1,0.21,AR,1728688136
277,maych'ew,12.7875,39.5422,12.33,63,0,1.19,ET,1728688137
278,anastasiyevskaya,45.2158,37.8926,17.09,65,16,0.78,RU,1728688138
279,loango,-4.6719,11.8312,25.26,87,70,2.97,CG,1728688139
280,gandi,12.9636,5.7434,30.35,42,88,3.38,NG,1728688141
281,pisco,-13.7,-76.2167,17.03,88,0,2.57,PE,1728688142
282,brookings,44.3114,-96.7984,16.36,48,0,4.63,US,1728687890
283,laguna,38.421,-121.4238,29.1,18,0,4.63,US,1728688145
284,tubarjal,30.4999,38.216,23.0,34,0,4.73,SA,1728688146
285,ratnagiri,16.9833,73.3,25.04,88,67,2.85,IN,1728688147
286,yaren,-0.5472,166.916,28.39,73,12,5.45,NR,1728688150
287,tralee,52.2704,-9.7026,7.97,67,78,1.85,IE,1728688151
288,tsiombe,-25.3,45.4833,21.33,71,78,2.26,MG,1728688152
289,singa,13.15,33.9333,26.94,62,20,3.67,SD,1728688154
290,san antonio de pale,-1.4014,5.6325,25.11,81,5,4.31,GQ,1728688155
291,bohinjska bistrica,46.2722,13.9535,10.71,96,20,1.84,SI,1728688156
292,margaret river,-33.95,115.0667,14.48,75,39,5.57,AU,1728688157
293,salahonda,2.1019,-78.7217,26.03,84,64,5.66,CO,1728688159
294,medina,24.4686,39.6142,30.24,20,0,1.54,SA,1728688160
295,takoradi,4.8845,-1.7554,24.88,88,53,3.21,GH,1728688161
296,kyzyl,51.7,94.45,5.65,74,96,0.26,RU,1728688162
297,loen,7.7601,168.2307,28.67,73,100,4.71,MH,1728688164
298,sibolga,1.7427,98.7792,24.65,90,100,0.85,ID,1728688165
299,saipan,15.1355,145.701,31.39,74,40,6.17,MP,1728688166
300,palmer,42.1584,-72.3287,14.17,51,40,1.54,US,1728688168
301,kenai,60.5544,-151.2583,9.45,64,0,13.89,US,1728688169
302,mahibadhoo,3.7833,72.9667,27.38,79,98,8.05,MV,1728688170
303,torre de moncorvo,41.1792,-7.0358,15.95,93,100,2.62,PT,1728688171
304,kristiansund,63.1115,7.732,2.85,93,100,8.23,NO,1728688173
305,atar,20.5169,-13.0499,34.55,22,47,4.41,MR,1728688174
306,kismayo,-0.3582,42.5454,25.27,87,31,6.76,SO,1728688176
307,harper,4.375,-7.7169,24.83,87,91,2.71,LR,1728688177
308,prince rupert,54.3161,-130.3201,13.83,58,0,3.09,CA,1728687967
309,paka,4.6374,103.4368,25.03,90,100,0.96,MY,1728688179
310,cabo san lucas,22.8909,-109.9124,28.16,69,0,5.28,MX,1728687661
311,punta arenas,-53.15,-70.9167,8.06,71,75,8.23,CL,1728688182
312,vilyuysk,63.7553,121.6247,-8.23,97,93,2.19,RU,1728688183
313,bambanglipuro,-7.95,110.2833,25.81,80,91,0.68,ID,1728688184
314,paramonga,-10.6667,-77.8333,18.09,83,17,3.37,PE,1728688186
315,kirakira,-10.4544,161.9205,29.18,71,99,3.05,SB,1728688187
316,general roca,-39.0333,-67.5833,15.93,23,77,12.67,AR,1728688188
317,saldanha,-33.0117,17.9442,14.35,92,59,4.25,ZA,1728688190
318,nasir,15.5894,32.5634,33.89,33,100,5.17,SD,1728688191
319,nogliki,51.8333,143.1667,7.8,70,100,4.68,RU,1728688192
320,grantsville,40.5999,-112.4644,28.64,19,0,4.02,US,1728688193
321,mbeni,-11.5014,43.3775,22.38,77,3,0.84,KM,1728688195
322,barra de santo antonio,-9.4047,-35.5072,24.26,76,86,4.96,BR,1728688196
323,cide,41.8921,33.0044,20.97,64,94,3.26,TR,1728688197
324,kerikeri,-35.2268,173.9474,17.17,62,0,3.58,NZ,1728688199
325,qarqaraly,49.4058,75.4742,7.64,78,98,6.72,KZ,1728688200
326,carqueiranne,43.0953,6.073,12.76,71,0,3.09,FR,1728688201
327,chui,-33.6971,-53.4616,14.51,91,26,2.53,UY,1728688202
328,darchula,29.8412,80.5287,9.27,54,2,2.51,NP,1728688205
329,westport,41.1415,-73.3579,17.11,53,0,2.68,US,1728688206
330,toliara,-23.35,43.6667,22.88,75,58,1.65,MG,1728688208
331,sawang wirawong,15.2416,105.0922,23.67,91,36,2.26,TH,1728688209
332,arkhangel'sk,64.5401,40.5433,5.06,93,100,6.0,RU,1728688210
333,taoudenni,22.6783,-3.9836,35.38,17,5,4.84,ML,1728688211
334,darnah,32.767,22.6367,28.03,38,0,2.48,LY,1728688213
335,sanming,26.2486,117.6186,18.01,86,7,1.16,CN,1728688214
336,kerman,30.2832,57.0788,17.83,17,0,1.36,IR,1728688215
337,calabozo,8.9242,-67.4293,28.9,65,100,2.08,VE,1728688216
338,natal,-5.795,-35.2094,24.36,83,20,2.57,BR,1728688134
339,ifanadiana,-21.3,47.6333,17.1,97,95,0.33,MG,1728688219
340,aykhal,66.0,111.5,-12.58,96,99,2.66,RU,1728688220
341,carora,10.1755,-70.0827,30.05,53,99,0.95,VE,1728688222
342,jakobstad,63.6749,22.7026,3.09,69,42,5.37,FI,1728688223
343,dwarka,22.2394,68.9678,27.5,71,100,5.09,IN,1728688224
344,fuglafjordur,62.244,-6.814,2.6,63,98,5.74,FO,1728688225
345,nyahururu,0.0421,36.3673,12.2,70,76,2.49,KE,1728688227
346,soure,-0.7167,-48.5233,27.43,77,100,6.76,BR,1728688228
347,tambovka,50.0969,128.0489,2.63,58,54,3.19,RU,1728688229
348,bardai,11.65,7.2333,25.3,61,68,3.53,NG,1728688230
349,san-pedro,4.7485,-6.6363,24.26,91,96,1.9,CI,1728688232
350,pucheng,27.9233,118.5333,15.66,82,80,0.41,CN,1728688233
351,san pedro pochutla,15.7333,-96.4667,29.84,83,75,1.99,MX,1728688235
352,pyapon,16.2833,95.6833,24.59,92,90,1.29,MM,1728688236
353,vung tau,10.346,107.0843,27.32,83,93,7.78,VN,1728688237
354,antofagasta,-23.65,-70.4,15.6,82,43,2.2,CL,1728688239
355,kingston,17.997,-76.7936,27.87,87,53,0.91,JM,1728688240
356,nzerekore,7.7562,-8.8179,20.88,99,100,1.0,GN,1728688241
357,san luis de la loma,17.2706,-100.8939,27.54,79,67,1.99,MX,1728688242
358,devils lake,48.1128,-98.8651,13.99,48,0,3.09,US,1728688244
359,zamania,25.4333,83.5667,24.03,57,100,1.73,IN,1728688245
360,tucuma,-0.1833,-50.05,26.99,76,100,4.81,BR,1728688246
361,tevriz,57.509,72.4042,-3.72,78,58,4.69,RU,1728688248
362,zhengjiatun,43.5064,123.5064,7.2,44,0,2.44,CN,1728688249
363,zheshart,62.0731,49.5733,-1.39,60,96,4.39,RU,1728688250
364,lethem,3.3803,-59.7968,29.28,54,92,3.12,GY,1728688252
365,cold lake,54.4502,-110.2017,5.56,80,100,1.51,CA,1728688253
366,marsh harbour,26.5412,-77.0636,26.84,71,74,8.81,BS,1728688254
367,kidal,18.4411,1.4078,33.11,15,21,0.06,ML,1728688255
368,paracuru,-3.41,-39.0306,25.98,78,95,6.25,BR,1728688258
369,katsuura,35.1333,140.3,21.78,72,6,4.64,JP,1728688259
370,tura,25.5198,90.2201,22.08,92,3,1.8,IN,1728688261
371,urdinarrain,-32.6857,-58.8932,21.08,55,2,3.41,AR,1728688262
372,torghay,49.6339,63.4981,1.51,96,100,5.27,KZ,1728688263
373,okhotsk,59.3833,143.3,5.13,85,100,9.88,RU,1728688264
374,la palma,33.8464,-118.0467,31.71,47,40,4.12,US,1728688253
375,mount gambier,-37.8333,140.7667,11.89,66,100,2.75,AU,1728688267
376,happy valley-goose bay,53.3168,-60.3315,4.17,93,100,4.63,CA,1728688268
377,tejen,37.3834,60.5054,17.88,40,25,3.11,TM,1728688269
378,lebu,-37.6167,-73.65,10.34,80,46,4.6,CL,1728688271
379,mumford,5.2618,-0.759,25.03,90,45,3.9,GH,1728688272
380,monte alegre,-2.0078,-54.0692,30.07,41,14,1.95,BR,1728688273
381,doka,13.5167,35.7667,23.39,74,6,2.98,SD,1728688275
382,iquique,-20.2208,-70.1431,15.59,82,40,0.73,CL,1728688276
383,chulakkurgan,43.765,69.1814,11.87,66,27,7.64,KZ,1728688277
384,chu,43.5983,73.7614,12.54,79,98,5.03,KZ,1728688278
385,turpan,42.9333,89.1667,19.87,26,3,2.45,CN,1728688280
386,hovd,48.0056,91.6419,8.23,41,95,3.65,MN,1728688281
387,tughyl,47.7252,84.2063,12.32,83,100,2.44,KZ,1728688282
388,carnarvon,-24.8667,113.6333,20.46,84,1,6.09,AU,1728688283
389,verkhnevilyuysk,63.4453,120.3167,-9.95,97,51,2.06,RU,1728688285
390,stephenville,32.2207,-98.2023,33.41,30,0,3.09,US,1728688286
391,hilo,19.7297,-155.09,27.85,75,20,4.63,US,1728688287
392,boyolangu,-8.1181,111.8935,25.36,89,75,1.49,ID,1728688289
393,sofifi,0.7349,127.576,27.31,79,98,1.18,ID,1728688290
394,umm kaddadah,13.6017,26.6876,29.82,33,89,1.39,SD,1728688291
395,shenjiamen,29.9576,122.298,21.79,78,49,5.11,CN,1728688292
396,cascais,38.6979,-9.4215,20.64,85,100,2.24,PT,1728688294
397,daru,-9.0763,143.2092,26.77,83,86,7.98,PG,1728688295
398,tazacorte,28.629,-17.9293,22.54,75,0,2.57,ES,1728688297
399,el hamma,33.8915,9.7963,23.54,70,71,6.12,TN,1728688298
400,sitka,57.0531,-135.33,11.94,54,75,9.26,US,1728688299
401,vorkuta,67.5,64.0,-7.24,76,100,4.08,RU,1728688124
402,polyarnyye zori,67.3661,32.4981,5.93,86,100,3.06,RU,1728688302
403,mogocha,53.7333,119.7667,-3.22,75,51,1.26,RU,1728688303
404,aketi,2.7388,23.7833,23.52,82,48,0.79,CD,1728688304
405,mountain home,43.133,-115.6912,25.01,26,20,3.09,US,1728688306
406,sola,-13.8833,167.55,26.14,78,70,8.55,VU,1728688307
407,conde,-7.2597,-34.9075,25.7,69,0,3.6,BR,1728688308
408,la'ie,21.6477,-157.9253,30.03,73,95,2.68,US,1728688309
409,seosan,36.7817,126.4522,16.82,73,0,1.04,KR,1728688311
410,ishikawa,26.4233,127.8214,25.19,78,0,1.54,JP,1728688312
411,calvinia,-31.4707,19.776,19.34,20,35,0.62,ZA,1728688313
412,nova vicosa,-17.8919,-39.3719,25.01,81,56,5.77,BR,1728688314
413,elhovo,42.1667,26.5667,17.31,97,100,1.6,BG,1728688316
414,talara,-4.5772,-81.2719,20.42,77,0,6.69,PE,1728688317
415,keflavik,64.0049,-22.5624,-0.76,64,20,2.57,IS,1728688318
416,moulins,46.5,3.3333,8.23,94,79,1.5,FR,1728688319
417,tamandare,-8.7597,-35.1047,23.74,77,88,4.06,BR,1728688321
418,itaituba,-4.2761,-55.9836,30.22,35,61,1.44,BR,1728688322
419,amora,38.6296,-9.1156,21.37,93,75,6.69,PT,1728688323
420,sona,45.4388,10.8255,12.14,87,0,2.57,IT,1728688325
421,kenora,49.8167,-94.4337,13.21,37,33,4.02,CA,1728688326
422,gizo,-8.103,156.8419,28.38,73,91,2.45,SB,1728688327
423,jiwani,25.05,61.7417,28.2,74,7,2.47,PK,1728688328
424,gokwe,-18.2048,28.9349,16.93,27,0,2.43,ZW,1728688330
425,bonthe,7.5264,-12.505,23.34,95,100,1.68,SL,1728688331
426,thyolo,-16.0678,35.1405,18.54,78,91,2.08,MW,1728688332
427,pavlogradka,54.2024,73.5592,-2.83,81,100,8.92,RU,1728688333
428,sirjan,29.452,55.6814,17.63,36,4,3.87,IR,1728688335
429,al kharijah,25.4514,30.5464,24.72,32,0,2.58,EG,1728688336
430,hami,42.8,93.45,16.21,25,53,3.72,CN,1728688337
431,sinop,41.7711,34.8709,16.43,68,99,4.04,TR,1728688338
432,khagrachhari,23.1,91.9667,22.47,99,15,0.61,BD,1728688340
433,afega,-13.7973,-171.8531,27.43,80,16,8.14,WS,1728688341
434,acarau,-2.8856,-40.12,26.14,76,57,7.92,BR,1728688342
435,magadan,59.5667,150.8,1.87,77,100,3.05,RU,1728688344
436,oamaru,-45.0784,170.9801,13.56,61,76,2.04,NZ,1728688345
437,veraval,20.9,70.3667,25.46,80,94,4.76,IN,1728688346
438,vershino-darasunskiy,52.35,115.5167,-7.93,73,0,1.61,RU,1728688349
439,rosarito,32.3333,-117.0333,28.51,55,16,4.56,MX,1728688350
440,pyhajarvi,67.0701,27.2176,4.58,83,100,2.05,FI,1728688351
441,lorengau,-2.0226,147.2712,29.26,75,17,4.65,PG,1728688353
442,pokhara,28.2333,83.9833,17.03,73,40,2.63,NP,1728688275
443,ryotsu-minato,38.0833,138.4333,18.46,66,11,1.58,JP,1728688355
444,san juan del sur,11.2529,-85.8705,29.12,65,75,2.06,NI,1728688356
445,kurumkan,54.3,110.3,-7.8,80,21,1.87,RU,1728688358
446,acajutla,13.5928,-89.8275,27.05,79,98,2.32,SV,1728688359
447,yeppoon,-23.1333,150.7333,22.5,69,16,6.35,AU,1728688360
448,priargunsk,50.3691,119.1012,0.99,40,85,1.49,RU,1728688361
449,betio village,1.358,172.9211,31.02,68,53,4.79,KI,1728688364
450,kongolo,-5.3833,27.0,21.18,88,99,0.64,CD,1728688365
451,rio grande,-32.035,-52.0986,17.31,92,63,5.27,BR,1728688367
452,igarka,67.4667,86.5833,-9.07,94,100,2.95,RU,1728688368
453,mar del plata,-38.0023,-57.5575,12.19,80,23,4.47,AR,1728688357
454,chinde,26.8212,87.7095,21.14,82,35,1.76,NP,1728688370
455,rach gia,10.0167,105.0833,26.34,89,76,3.49,VN,1728688372
456,dadukou,26.5479,101.7054,20.28,89,95,0.83,CN,1728688373
457,poronaysk,49.2167,143.1167,6.61,71,7,1.43,RU,1728688374
458,geneina,13.45,22.45,24.83,60,89,0.56,SD,1728688376
459,martapura,-3.4167,114.85,24.05,100,20,2.06,ID,1728688377
460,aflou,34.1128,2.1023,19.07,49,20,1.52,DZ,1728688378
461,luena,-11.7833,19.9167,15.84,25,0,1.24,AO,1728688379
462,tara,56.8944,74.371,-3.82,78,58,6.12,RU,1728688368
463,minas de marcona,-15.2119,-75.1103,14.58,69,3,6.28,PE,1728688382
464,georgievka,49.3314,81.5761,13.05,60,95,6.61,KZ,1728688383
465,bastogne,50.0035,5.7184,1.77,94,9,2.13,BE,1728688384
466,businga,3.3333,20.8833,22.26,93,72,1.11,CD,1728688386
467,kivioli,59.3531,26.9711,7.88,83,60,4.47,EE,1728688387
468,pacaembu,-21.5622,-51.2606,22.95,88,100,3.6,BR,1728688390
469,cove,7.221,2.3402,23.36,95,71,1.89,BJ,1728688391
470,nkove,-7.95,30.85,23.49,66,89,3.44,TZ,1728688392
471,senj,44.9894,14.9058,14.92,82,3,5.88,HR,1728688393
472,yanam,16.7333,82.2167,24.0,97,47,0.9,IN,1728688395
473,padangsidempuan,1.3667,99.2667,22.0,98,100,0.74,ID,1728688396
474,st. john's,47.5649,-52.7093,9.98,87,25,2.68,CA,1728688397
475,leh,34.1667,77.5833,1.42,27,0,0.46,IN,1728688398
476,moranbah,-22.0016,148.0466,24.18,56,2,7.64,AU,1728688400
477,nikol'sk,53.7189,46.0712,0.45,65,99,3.14,RU,1728688401
478,longyearbyen,78.2186,15.6401,2.91,81,75,13.89,SJ,1728688405
479,dongola,19.1667,30.4833,29.45,19,19,7.24,SD,1728688406
480,orapa,-21.2833,25.3667,21.62,28,0,3.9,BW,1728688407
481,antigonish,45.6169,-61.9986,11.65,76,72,0.89,CA,1728688409
482,agat village,13.3886,144.6585,30.42,86,40,1.54,GU,1728688410
483,tutoia,-2.7619,-42.2744,26.41,80,75,5.27,BR,1728688411
484,mikun',62.3547,50.0771,-2.03,62,99,4.58,RU,1728688413
485,andergrove,-21.0833,149.1833,23.6,73,40,6.7,AU,1728688414
486,abepura,-2.6333,140.5833,29.45,79,20,3.6,ID,1728688415
487,sao joao da barra,-21.6403,-41.0511,23.66,89,88,12.58,BR,1728688416
488,ust-tsilma,65.441,52.1498,-1.62,71,100,5.35,RU,1728688418
489,khangarh,29.9173,71.1618,24.94,22,0,3.65,PK,1728688419
490,mont-laurier,46.5501,-75.4993,13.02,75,89,3.92,CA,1728688420
491,howrah,22.5892,88.3103,29.0,89,40,3.09,IN,1728688421
492,kendari,-3.945,122.4989,25.23,92,48,0.34,ID,1728688423
493,illizi,26.4833,8.4667,31.81,23,32,2.55,DZ,1728688424
494,waingapu,-9.6567,120.2641,27.3,70,100,2.83,ID,1728688425
495,fasa,28.9383,53.6482,18.69,35,0,0.97,IR,1728688427
496,al wajh,26.2455,36.4525,24.97,78,0,2.06,SA,1728688428
497,demopolis,32.5176,-87.8364,25.97,27,0,0.0,US,1728688429
498,kununurra,-15.7667,128.7333,24.99,78,12,0.0,AU,1728688430
499,brokopondo,4.75,-55.1667,27.39,75,95,3.21,SR,1728688432
500,miri,4.4148,114.0089,25.05,100,98,1.61,MY,1728688433
501,mangrol,21.1167,70.1167,25.32,79,95,5.37,IN,1728688434
502,geraldton,-28.7667,114.6,19.23,82,100,4.12,AU,1728688206
503,ust-nera,64.5667,143.2,-7.51,94,84,2.41,RU,1728688437
504,alta,69.9689,23.2717,3.59,87,100,23.25,NO,1728688438
505,torit,4.4133,32.5678,22.31,80,7,1.39,SS,1728688439
506,arroyo,41.6096,-4.7969,16.75,82,100,3.09,ES,1728688440
507,fortaleza,-3.7227,-38.5247,27.82,84,20,5.66,BR,1728688443
508,nema,57.5067,50.5011,-3.75,69,38,2.53,RU,1728688444
509,severo-yeniseyskiy,60.3725,93.0408,-11.54,99,99,0.34,RU,1728688446
510,tianshui,34.5439,105.6897,12.76,89,100,1.37,CN,1728688447
511,zholymbet,51.7433,71.7122,-1.68,96,100,7.77,KZ,1728688448
512,coquimbo,-29.9533,-71.3436,14.85,75,0,2.06,CL,1728688449
513,karratha,-20.7377,116.8463,26.6,56,63,1.94,AU,1728688451
514,dondaicha,21.3333,74.5667,25.37,86,95,2.98,IN,1728688452
515,villers-cotterets,49.2531,3.09,6.59,75,77,2.7,FR,1728688453
516,abalak,58.1286,68.5944,-3.92,80,10,4.35,RU,1728688455
517,petrovsk-zabaykal'skiy,51.273,108.843,-3.22,74,33,1.29,RU,1728688456
518,malanje,-9.5402,16.341,19.68,68,9,0.88,AO,1728688457
519,tabas,33.5959,56.9244,23.71,14,0,1.67,IR,1728688458
520,dzhangala,49.2167,50.3333,4.6,69,23,4.27,KZ,1728688460
521,whangarei,-35.7317,174.3239,16.32,47,20,5.22,NZ,1728688461
522,barranca,-10.75,-77.7667,17.59,81,15,3.08,PE,1728688462
523,khamis mushait,18.3064,42.7292,18.34,29,0,2.06,SA,1728688463
524,rudbar,30.15,62.6,22.42,18,0,0.81,AF,1728688466
525,port saint john's,-31.6229,29.5448,17.13,90,35,1.33,ZA,1728688467
526,sant lluis,39.8526,4.2594,18.22,72,20,2.57,ES,1728688469
527,uvinza,-5.1036,30.3911,19.53,92,98,1.72,TZ,1728688470
528,baoding,38.8511,115.4903,13.72,60,0,2.3,CN,1728688471
529,laojunmiao,39.8333,97.7333,8.83,36,26,0.66,CN,1728688472
530,kirando,-7.4167,30.6,23.71,65,98,3.9,TZ,1728688474
531,praia da vitoria,38.7333,-27.0667,18.14,68,20,6.44,PT,1728688475
532,sur,22.5667,59.5289,28.18,47,3,3.87,OM,1728688477
533,loei,17.4167,101.5,18.97,96,42,0.33,TH,1728688478
534,bayganin,48.6947,55.8742,1.82,67,81,4.68,KZ,1728688479
535,salo,45.6086,10.531,14.05,72,2,4.06,IT,1728688480
536,thunder bay,48.4001,-89.3168,13.99,44,20,5.14,CA,1728688482
537,uttar char fasson,22.2332,90.7132,26.47,87,16,2.91,BD,1728688483
538,bac lieu,9.285,105.7244,26.61,87,100,3.81,VN,1728688484
539,bondoukou,8.0333,-2.8,22.07,95,54,1.75,CI,1728688485
540,nizhnyaya poyma,56.1622,97.1933,-4.66,61,90,3.01,RU,1728688487
541,valparaiso,-33.0393,-71.6273,15.8,88,75,4.12,CL,1728688489
542,rikaze,29.25,88.8833,6.21,40,13,0.23,CN,1728688491
543,zouerate,22.7187,-12.4521,33.01,26,20,4.96,MR,1728688492
544,kiunga,-6.1219,141.2906,26.43,86,88,0.73,PG,1728688493
545,eilat,29.5581,34.9482,23.91,53,0,2.06,IL,1728688495
546,chernomorskoye,45.5039,32.6997,21.16,79,98,6.2,UA,1728688496
547,nova sintra,14.8667,-24.7167,27.67,81,100,9.38,CV,1728688497
548,lake albert,-35.1667,147.3833,17.14,62,0,2.95,AU,1728688498
549,klaksvik,62.2266,-6.589,3.75,61,99,6.6,FO,1728688500
550,revda,56.801,59.9303,-5.07,87,100,4.23,RU,1728688501
551,holdrege,40.4403,-99.3698,23.95,35,0,3.6,US,1728688502
552,colchani,-20.3,-66.9333,12.34,10,0,4.8,BO,1728688505
553,piotrkow kujawski,52.5511,18.4991,7.01,68,18,2.73,PL,1728688506
554,tamanrasset,22.785,5.5228,23.95,29,40,1.03,DZ,1728688507
555,maksatikha,57.797,35.8825,10.0,85,86,5.16,RU,1728688509
556,el calafate,-50.3408,-72.2768,6.55,79,97,4.73,AR,1728688510
557,port augusta,-32.5,137.7667,18.79,40,70,4.46,AU,1728688511
558,klyuchi,52.2667,79.1667,0.08,90,100,10.34,RU,1728688512
559,sunchales,-30.944,-61.5615,23.92,44,1,2.24,AR,1728688514
560,hafnarfjordur,64.0671,-21.9377,-0.5,74,0,1.03,IS,1728688515
561,dryden,49.7833,-92.7503,11.16,58,20,2.57,CA,1728688516
562,glenvale,-27.5648,151.9076,19.38,69,4,1.1,AU,1728688518
563,al ghayzah,16.2079,52.176,24.43,79,1,0.76,YE,1728688519
564,mazatlan,23.2167,-106.4167,32.98,80,40,6.17,MX,1728688520
565,fortuna,40.5982,-124.1573,19.51,59,20,0.0,US,1728688521
566,lincoln city,44.9582,-124.0179,18.49,77,100,1.79,US,1728688409
567,mokopane,-24.1944,29.0097,20.55,35,8,2.82,ZA,1728688524
